[{"uuid": "b8d05bf9-2ef2-416d-ba70-b5dba74fe777", "number": "9650024", "shortname": "ALTHAGEN", "longname": "ALTHAGEN", "agency": "STANDORT STRALSUND", "longitude": 12.418960482975635, "latitude": 54.37175749424967, "water": {"shortname": "OSTSEE", "longname": "OSTSEE"}}, {"uuid": "09227288-8c72-4b12-88fe-8765d1b2b400", "number": "9650040", "shortname": "BARH\u00d6FT", "longname": "BARH\u00d6FT", "agency": "STANDORT STRALSUND", "longitude": 13.032221032802543, "latitude": 54.43453931311291, "water": {"shortname": "OSTSEE", "longname": "OSTSEE"}}, {"uuid": "220ff4c6-83da-4a1b-9c13-dfee5a2a8798", "number": "9640015", "shortname": "WARNEM\u00dcNDE", "longname": "WARNEM\u00dcNDE", "km": 0.0, "agency": "STANDORT STRALSUND", "longitude": 12.10338825706324, "latitude": 54.16973098816682, "water": {"shortname": "OSTSEE", "longname": "OSTSEE"}}, {"uuid": "00c33ed9-6bea-45b4-8728-7edc7e43e2f3", "number": "9650030", "shortname": "BARTH", "longname": "BARTH", "km": 0.0, "agency": "STANDORT STRALSUND", "longitude": 12.723220564867594, "latitude": 54.37122057673123, "water": {"shortname": "OSTSEE", "longname": "OSTSEE"}}, {"uuid": "b9163121-2747-4d2b-bcf5-ab5ff7396e56", "number": "9650043", "shortname": "STRALSUND", "longname": "STRALSUND", "km": 0.0, "agency": "STANDORT STRALSUND", "longitude": 13.119014797980478, "latitude": 54.30568217868532, "water": {"shortname": "OSTSEE", "longname": "OSTSEE"}}, {"uuid": "340707f4-5d35-4898-8b34-95ea3f4206b3", "number": "9650070", "shortname": "STAHLBRODE", "longname": "STAHLBRODE", "km": 0.0, "agency": "STANDORT STRALSUND", "longitude": 13.289714493128574, "latitude": 54.234461099326666, "water": {"shortname": "OSTSEE", "longname": "OSTSEE"}}, {"uuid": "b327e35c-5dad-4b79-9cef-60fbd504eb37", "number": "9650080", "shortname": "WOLGAST", "longname": "WOLGAST", "km": 0.0, "agency": "STANDORT STRALSUND", "longitude": 13.77037952077918, "latitude": 54.04173736440726, "water": {"shortname": "OSTSEE", "longname": "OSTSEE"}}, {"uuid": "492f85b8-e5c6-439e-8e14-08ca78f10dce", "number": "9670046", "shortname": "NEUENDORF HAFEN", "longname": "NEUENDORF HAFEN", "km": 0.0, "agency": "STANDORT STRALSUND", "longitude": 13.093555157353748, "latitude": 54.52449364846292, "water": {"shortname": "OSTSEE", "longname": "OSTSEE"}}, {"uuid": "905e7328-b8aa-4b08-9c22-c864101e462b", "number": "9670050", "shortname": "KLOSTER", "longname": "KLOSTER", "km": 0.0, "agency": "STANDORT STRALSUND", "longitude": 13.111362240678364, "latitude": 54.584766443253756, "water": {"shortname": "OSTSEE", "longname": "OSTSEE"}}, {"uuid": "4b348b56-b08c-4522-9042-49c1edb45d0d", "number": "9670055", "shortname": "WITTOWER F\u00c4HRE", "longname": "WITTOWER F\u00c4HRE", "km": 0.0, "agency": "STANDORT STRALSUND", "longitude": 13.245134582969719, "latitude": 54.55759359561219, "water": {"shortname": "OSTSEE", "longname": "OSTSEE"}}, {"uuid": "91922b9b-ef7b-4aae-95a1-9d6a9e61969a", "number": "9670063", "shortname": "LAUTERBACH", "longname": "LAUTERBACH", "km": 0.0, "agency": "STANDORT STRALSUND", "longitude": 13.499696400314125, "latitude": 54.3416033935843, "water": {"shortname": "OSTSEE", "longname": "OSTSEE"}}, {"uuid": "9e7b2a4d-cfe8-4524-8a1e-c196ea897e9f", "number": "9670065", "shortname": "SASSNITZ", "longname": "SASSNITZ", "km": 0.0, "agency": "STANDORT STRALSUND", "longitude": 13.636651355609894, "latitude": 54.50829305906584, "water": {"shortname": "OSTSEE", "longname": "OSTSEE"}}, {"uuid": "d1c9bb3c-2929-46a8-a338-adfddf0ef524", "number": "9670067", "shortname": "THIESSOW", "longname": "THIESSOW", "km": 0.0, "agency": "STANDORT STRALSUND", "longitude": 13.709756972733516, "latitude": 54.28066658937803, "water": {"shortname": "OSTSEE", "longname": "OSTSEE"}}, {"uuid": "1fa822e6-fb0c-4331-83f1-749972046dca", "number": "9690077", "shortname": "RUDEN", "longname": "RUDEN", "km": 0.0, "agency": "STANDORT STRALSUND", "longitude": 13.771905637420616, "latitude": 54.20434785269332, "water": {"shortname": "OSTSEE", "longname": "OSTSEE"}}, {"uuid": "087b6386-0957-4b47-af7d-ecd62f6d63ce", "number": "9690078", "shortname": "GREIFSWALD OIE", "longname": "GREIFSWALD OIE", "km": 0.0, "agency": "STANDORT STRALSUND", "longitude": 13.907208142774298, "latitude": 54.241313337573885, "water": {"shortname": "OSTSEE", "longname": "OSTSEE"}}, {"uuid": "f53bb77f-e55a-468f-b7be-b66baf7e3e5b", "number": "9690085", "shortname": "KARLSHAGEN", "longname": "KARLSHAGEN", "km": 0.0, "agency": "STANDORT STRALSUND", "longitude": 13.807622038541595, "latitude": 54.10786012437913, "water": {"shortname": "OSTSEE", "longname": "OSTSEE"}}, {"uuid": "c0f33a36-cac4-4e47-a3f5-d1863c2f0f99", "number": "9690093", "shortname": "KOSEROW", "longname": "KOSEROW", "km": 0.0, "agency": "STANDORT STRALSUND", "longitude": 14.000822919442996, "latitude": 54.06037833524713, "water": {"shortname": "OSTSEE", "longname": "OSTSEE"}}, {"uuid": "6b53ef42-5bd9-4366-ace3-442e307bec60", "number": "9650073", "shortname": "GREIFSWALD-WIECK", "longname": "GREIFSWALD-WIECK", "km": 1.0, "agency": "STANDORT STRALSUND", "longitude": 13.457152923470648, "latitude": 54.09771135196671, "water": {"shortname": "OSTSEE", "longname": "OSTSEE"}}, {"uuid": "9e19c411-f728-4a43-a057-39d4155c71cc", "number": "9610010", "shortname": "FLENSBURG", "longname": "FLENSBURG", "km": 4.0, "agency": "STANDORT L\u00dcBECK", "longitude": 9.43301766621292, "latitude": 54.795056780405034, "water": {"shortname": "OSTSEE", "longname": "OSTSEE"}}, {"uuid": "5a33bf14-6bdc-4666-b2e3-ac78e3083e2a", "number": "9610015", "shortname": "LANGBALLIGAU", "longname": "LANGBALLIGAU", "km": 35.0, "agency": "STANDORT L\u00dcBECK", "longitude": 9.654140992315282, "latitude": 54.823267291869904, "water": {"shortname": "OSTSEE", "longname": "OSTSEE"}}, {"uuid": "22b7dcb3-8c42-4f71-9191-49143ba3a828", "number": "9610020", "shortname": "LT KALKGRUND", "longname": "LT KALKGRUND", "km": 61.5, "agency": "STANDORT L\u00dcBECK", "longitude": 9.888008024317406, "latitude": 54.82459902141549, "water": {"shortname": "OSTSEE", "longname": "OSTSEE"}}, {"uuid": "70d4f87f-4489-455a-a435-d6df9e09a87e", "number": "9610025", "shortname": "SCHLEIM\u00dcNDE SP", "longname": "SCHLEIM\u00dcNDE SP", "km": 78.0, "agency": "STANDORT L\u00dcBECK", "longitude": 10.036688584395906, "latitude": 54.67273603368201, "water": {"shortname": "OSTSEE", "longname": "OSTSEE"}}, {"uuid": "d22c341b-80c2-436d-98e1-8a2575bc975a", "number": "9630007", "shortname": "TIMMENDORF POEL", "longname": "TIMMENDORF POEL", "km": 100.0, "agency": "STANDORT L\u00dcBECK", "longitude": 11.375642142698938, "latitude": 53.99199676671613, "water": {"shortname": "OSTSEE", "longname": "OSTSEE"}}, {"uuid": "95a0ab45-a9ac-4f9a-93e9-b0ffa1c57b5f", "number": "9630008", "shortname": "WISMAR-BAUMHAUS", "longname": "WISMAR-BAUMHAUS", "km": 100.0, "agency": "STANDORT L\u00dcBECK", "longitude": 11.457917784463794, "latitude": 53.89876160549276, "water": {"shortname": "OSTSEE", "longname": "OSTSEE"}}, {"uuid": "06219dd9-a2c4-463c-9619-623b3c026cbc", "number": "9610070", "shortname": "HEILIGENHAFEN", "longname": "HEILIGENHAFEN", "km": 123.0, "agency": "STANDORT L\u00dcBECK", "longitude": 11.005664168144426, "latitude": 54.372959365395786, "water": {"shortname": "OSTSEE", "longname": "OSTSEE"}}, {"uuid": "3ad4013f-644b-47f5-a641-44b332bfecb2", "number": "9610066", "shortname": "KIEL-HOLTENAU", "longname": "KIEL-HOLTENAU", "km": 150.0, "agency": "STANDORT L\u00dcBECK", "longitude": 10.157049612180776, "latitude": 54.37208668229111, "water": {"shortname": "OSTSEE", "longname": "OSTSEE"}}, {"uuid": "736437d7-0f6f-41b7-bc69-5ed721da4f85", "number": "9610050", "shortname": "LT KIEL", "longname": "LT KIEL", "km": 177.75, "agency": "STANDORT L\u00dcBECK", "longitude": 10.273267865043424, "latitude": 54.499588791796825, "water": {"shortname": "OSTSEE", "longname": "OSTSEE"}}, {"uuid": "3f0b6b74-80a9-4576-a3cb-ea967dfc349f", "number": "9610080", "shortname": "NEUSTADT", "longname": "NEUSTADT", "km": 263.0, "agency": "STANDORT L\u00dcBECK", "longitude": 10.804987829789335, "latitude": 54.09652309664692, "water": {"shortname": "OSTSEE", "longname": "OSTSEE"}}, {"uuid": "8effc15d-8583-4ac6-9f42-1b63c47f92b0", "number": "9610075", "shortname": "MARIENLEUCHTE", "longname": "MARIENLEUCHTE", "km": 284.7, "agency": "STANDORT L\u00dcBECK", "longitude": 11.238874338140052, "latitude": 54.49663026314798, "water": {"shortname": "OSTSEE", "longname": "OSTSEE"}}, {"uuid": "b09f2243-60f0-469a-8f3b-0ea6abc83267", "number": "9610035", "shortname": "KAPPELN", "longname": "KAPPELN", "km": 507.3, "agency": "STANDORT L\u00dcBECK", "longitude": 9.937938134263065, "latitude": 54.66438391176661, "water": {"shortname": "OSTSEE", "longname": "OSTSEE"}}, {"uuid": "09370c05-1041-4395-a5d4-b8db6e59c4c8", "number": "9610040", "shortname": "SCHLESWIG", "longname": "SCHLESWIG", "km": 540.0, "agency": "STANDORT L\u00dcBECK", "longitude": 9.569058518839194, "latitude": 54.51143169392662, "water": {"shortname": "OSTSEE", "longname": "OSTSEE"}}, {"uuid": "1faa9b2c-c269-4662-af70-ef11da27cc1c", "number": "9610045", "shortname": "ECKERNF\u00d6RDE", "longname": "ECKERNF\u00d6RDE", "km": 612.0, "agency": "STANDORT L\u00dcBECK", "longitude": 9.836007267744343, "latitude": 54.474702770338084, "water": {"shortname": "OSTSEE", "longname": "OSTSEE"}}]